merged,name,lat,lon,Address,Municipality,Sale price
"168 Hood Ave, Syracuse, New York","168, Hood Avenue, Northside, City of Syracuse, Onondaga County, New York, 13208, United States",43.07458135,-76.14463437679908,168 Hood Ave,Syracuse,110000
"422 Ostrander Ave, Syracuse, New York","422, West Ostrander Avenue, North Valley, City of Syracuse, Onondaga County, New York, 13205, United States",43.013987,-76.1510917,422 Ostrander Ave,Syracuse,151
"221-23 Mclennan Ave, Syracuse, New York","McLennan Avenue, Brighton, City of Syracuse, Onondaga County, New York, 13205, United States",43.028211,-76.148857,221-23 Mclennan Ave,Syracuse,70000
"127 Josephine St, Syracuse, New York","127, Josephine Street, Near Northeast, City of Syracuse, Onondaga County, New York, 13208, United States",43.0610695,-76.1477517,127 Josephine St,Syracuse,60000
"206 Elk St, Syracuse, New York","206, Elk Street, Brighton, City of Syracuse, Onondaga County, New York, 13205, United States",43.0249178,-76.1420453,206 Elk St,Syracuse,16000
"208-10 Markland Ave, Syracuse, New York","Markland Avenue, Skunk City, City of Syracuse, Onondaga County, New York, 13207, United States",43.031711,-76.179598,208-10 Markland Ave,Syracuse,140000
"504 Arthur St, Syracuse, New York","504, Arthur Street, Strathmore, City of Syracuse, Onondaga County, New York, 13207, United States",43.0322026,-76.1772145,504 Arthur St,Syracuse,70000
"152 Lakeview Ave, Syracuse, New York","152, Lakeview Avenue, Westside, City of Syracuse, Onondaga County, New York, 13204, United States",43.0497838,-76.1763772,152 Lakeview Ave,Syracuse,45000
"2412 Fayette St, Syracuse, New York","2412, East Fayette Street, Salt Springs, City of Syracuse, Onondaga County, New York, 13224, United States",43.0481293,-76.1100208,2412 Fayette St,Syracuse,40000
"413 Bear St, Syracuse, New York","413, Bear Street, Washington Square, City of Syracuse, Onondaga County, New York, 13208, United States",43.0707099,-76.1607565,413 Bear St,Syracuse,90000
"104 Commonwealth Ave, Syracuse, New York","104, Commonwealth Avenue, Washington Square, City of Syracuse, Onondaga County, New York, 13208, United States",43.0715446,-76.1628705,104 Commonwealth Ave,Syracuse,38000
"1903 Geddes St, Syracuse, New York","1903, South Geddes Street, Strathmore, City of Syracuse, Onondaga County, New York, 13207, United States",43.0284908,-76.1748932,1903 Geddes St,Syracuse,169900
"312-14 Marlborough Rd, Syracuse, New York","Marlborough Road, Eastwood, City of Syracuse, Onondaga County, New York, 13206, United States",43.0693245,-76.112081,312-14 Marlborough Rd,Syracuse,137000
"220 Huntley St, Syracuse, New York","220, Huntley Street, Northside, City of Syracuse, Onondaga County, New York, 13208, United States",43.0776934,-76.1385458,220 Huntley St,Syracuse,120000
"243-45 Webster Ave, Syracuse, New York","Webster Avenue, Brighton, City of Syracuse, Onondaga County, New York, 13205, United States",43.0224402,-76.1452992,243-45 Webster Ave,Syracuse,75500
"410 Fitch St, Syracuse, New York","410, Fitch Street, Skunk City, City of Syracuse, Onondaga County, New York, 13204, United States",43.037997,-76.1766031,410 Fitch St,Syracuse,9000
"461 Pleasantview Ave, Syracuse, New York","461, Pleasantview Avenue, Northside, Lyncourt, City of Syracuse, Onondaga County, New York, 13208, United States",43.0783623,-76.1346683,461 Pleasantview Ave,Syracuse,130000
"164 Baldwin Ave, Syracuse, New York","164, Baldwin Avenue, Elmwood, City of Syracuse, Onondaga County, New York, 13205, United States",43.014638,-76.1554319,164 Baldwin Ave,Syracuse,68900
"806 Cumberland Ave, Syracuse, New York","806, Cumberland Avenue, University Neighborhood, City of Syracuse, Onondaga County, New York, 13210, United States",43.0301984,-76.1130537293024,806 Cumberland Ave,Syracuse,220000
"337 Forest Hill Dr, Syracuse, New York","337, Forest Hill Drive, Eastwood, City of Syracuse, Onondaga County, New York, 13206, United States",43.06272785,-76.11052916375812,337 Forest Hill Dr,Syracuse,179000
"802 Spring St, Syracuse, New York","802, Spring Street, Washington Square, City of Syracuse, Onondaga County, New York, 13208, United States",43.0689994,-76.1514265,802 Spring St,Syracuse,100000
"411 Bradley St, Syracuse, New York","411, Bradley Street, Strathmore, City of Syracuse, Onondaga County, New York, 13204, United States",43.0334169,-76.172438,411 Bradley St,Syracuse,64900
"107 Belle Ave, Syracuse, New York","107, Belle Avenue, North Valley, City of Syracuse, Onondaga County, New York, 13205, United States",43.0113457,-76.1430901,107 Belle Ave,Syracuse,35000
"117-19 Niven St, Syracuse, New York","Niven Street, Salt Springs, Dewitt, Onondaga County, New York, 13224, United States",43.047595,-76.106141,117-19 Niven St,Syracuse,125000
"316 Burdick Ave, Syracuse, New York","316, Burdick Avenue, City of Syracuse, Onondaga County, New York, 13208, United States",43.0774617,-76.155572,316 Burdick Ave,Syracuse,101400
"1831 Butternut St, Syracuse, New York","1831, Butternut Street, Northside, City of Syracuse, Onondaga County, New York, 13208, United States",43.0762382,-76.1428674,1831 Butternut St,Syracuse,99000
"105 Birch St, Liverpool, New York","105, Birch Street, Village of Liverpool, Town of Salina, Onondaga County, New York, 13088, United States",43.104299,-76.21578964625655,105 Birch St,Liverpool,100000
"460-62 Midland Ave, Syracuse, New York","Midland Avenue, North Valley, City of Syracuse, Onondaga County, New York, 13205, United States",43.011919,-76.1478,460-62 Midland Ave,Syracuse,118000
"420-22 Douglas St, Syracuse, New York","Douglas Street, Near Northeast, City of Syracuse, Onondaga County, New York, 13203, United States",43.0597542,-76.1407831,420-22 Douglas St,Syracuse,165000
"136 Dorwin Ave, Syracuse, New York","136, Dorwin Avenue, City of Syracuse, Onondaga County, New York, 13205, United States",42.9854795,-76.1451602,136 Dorwin Ave,Syracuse,160000
"547-49 Hickok Ave, Syracuse, New York","Hickok Avenue, City of Syracuse, Onondaga County, New York, 13206, United States",43.058735,-76.113222,547-49 Hickok Ave,Syracuse,130000
"228-30 Duane St, Syracuse, New York","Duane Street, Skunk City, City of Syracuse, Onondaga County, New York, 13207, United States",43.031761,-76.178387,228-30 Duane St,Syracuse,125000
"114 Cortland Pl, Syracuse, New York","114, Cortland Place, North Valley, City of Syracuse, Onondaga County, New York, 13207, United States",43.0033115,-76.1526506,114 Cortland Pl,Syracuse,84800
"168 Baldwin Ave, Syracuse, New York","168, Baldwin Avenue, Elmwood, City of Syracuse, Onondaga County, New York, 13205, United States",43.0144726,-76.1553749,168 Baldwin Ave,Syracuse,83000
"1435-37 Midland Ave, Syracuse, New York","Midland Avenue, North Valley, City of Syracuse, Onondaga County, New York, 13205, United States",43.011919,-76.1478,1435-37 Midland Ave,Syracuse,69000
"128 Hayden Ave, Syracuse, New York","128, Hayden Avenue, Far Westside, City of Syracuse, Onondaga County, New York, 13204, United States",43.0528657,-76.1960269,128 Hayden Ave,Syracuse,52421
"380 Kennedy St, Syracuse, New York","380, West Kennedy Street, Brighton, City of Syracuse, Onondaga County, New York, 13205, United States",43.0284316,-76.1569948,380 Kennedy St,Syracuse,47000
"4668 Aqua Dr, Marcellus (town), New York","4668, Aqua Drive, Town of Marcellus, Onondaga County, New York, 13108, United States",42.996487,-76.3336105,4668 Aqua Dr,Marcellus (town),265000
"5792 Seneca Tpke, Onondaga, New York","5792, East Seneca Turnpike, Town of Onondaga, Onondaga County, New York, 13078, United States",42.9976967,-76.119006,5792 Seneca Tpke,Onondaga,140000
"701 Spring St, Syracuse, New York","701, Spring Street, Washington Square, City of Syracuse, Onondaga County, New York, 13208, United States",43.0682206,-76.1505398,701 Spring St,Syracuse,135000
"122 Berger Ave, Syracuse, New York","122, Berger Avenue, North Valley, City of Syracuse, Onondaga County, New York, 13205, United States",43.016006,-76.154355,122 Berger Ave,Syracuse,20000
"601 Forest Dr, Cicero, New York","601, Forest Drive, City of Syracuse, Onondaga County, New York, 13212, United States",43.13052245,-76.11123979793595,601 Forest Dr,Cicero,180000
"4914 Driftwood Dr, Salina, New York","4914, Driftwood Drive, The Meadows, Salina, Town of Salina, Onondaga County, New York, 13088, United States",43.1069183,-76.1758994987599,4914 Driftwood Dr,Salina,192000
"121 Charles Ave, Solvay, New York","121, Charles Avenue, City of Syracuse, Town of Geddes, Onondaga County, New York, 13209, United States",43.0585172,-76.2003125,121 Charles Ave,Solvay,130000
"116 Scottholm Terr, Syracuse, New York","116, Scottholm Terrace, City of Syracuse, Onondaga County, New York, 13224, United States",43.0421819,-76.1122331,116 Scottholm Terr,Syracuse,230000
"1148-50 Cannon St, Syracuse, New York","Cannon Street, Brighton, City of Syracuse, Onondaga County, New York, 13205, United States",43.022678,-76.146712,1148-50 Cannon St,Syracuse,85000
"735 Lemoyne Ave, Syracuse, New York","735, Lemoyne Avenue, Washington Square, City of Syracuse, Onondaga County, New York, 13208, United States",43.0749099,-76.159687,735 Lemoyne Ave,Syracuse,36500
"735 Lemoyne Ave, Syracuse, New York","735, Lemoyne Avenue, Washington Square, City of Syracuse, Onondaga County, New York, 13208, United States",43.0749099,-76.159687,735 Lemoyne Ave,Syracuse,32000
"212 Delhi St, Syracuse, New York","212, Delhi Street, Lincoln Park, City of Syracuse, Onondaga County, New York, 13203, United States",43.0560711,-76.1318366,212 Delhi St,Syracuse,30000
"195 Fiscoe Ave, Syracuse, New York","195, Fiscoe Avenue, South Valley, City of Syracuse, Onondaga County, New York, 13205, United States",42.9925037,-76.1476246,195 Fiscoe Ave,Syracuse,1000
"243 Ostrander Ave, Syracuse, New York","243, West Ostrander Avenue, North Valley, City of Syracuse, Onondaga County, New York, 13205, United States",43.0137749,-76.1467886,243 Ostrander Ave,Syracuse,976
"7922 Appleton Rd, Cicero, New York","7922, Appleton Road, Town of Cicero, Onondaga County, New York, 13039, United States",43.1538316,-76.1084507,7922 Appleton Rd,Cicero,200000
"6181 Diffin Rd, Cicero, New York","6181, Diffin Road, Town of Cicero, Onondaga County, New York, 13039, United States",43.1727322,-76.1001526,6181 Diffin Rd,Cicero,155000
"304 Rita Dr, Clay, New York","304, Rita Drive, City of Syracuse, Onondaga County, New York, 13212, United States",43.1258879,-76.1650842,304 Rita Dr,Clay,204999
"315 Shaver Ave, North Syracuse, New York","315, Shaver Avenue, Village of North Syracuse, Town of Clay, Onondaga County, New York, 13212, United States",43.1395671,-76.1379705,315 Shaver Ave,North Syracuse,195000
"870 Franklin St, Skaneateles (town), New York","870, Franklin Street, Village of Skaneateles, Town of Skaneateles, Onondaga County, New York, 13152, United States",42.9461765,-76.4425182,870 Franklin St,Skaneateles (town),300000
"4908-10 Salina St, Syracuse, New York","South Salina Street, North Valley, City of Syracuse, Onondaga County, New York, 13205, United States",43.0035102,-76.1429303,4908-10 Salina St,Syracuse,137800
"222 Aberdeen Terr, Syracuse, New York","222, Aberdeen Terrace, City of Syracuse, Onondaga County, New York, 13206, United States",43.0614988,-76.0948614,222 Aberdeen Terr,Syracuse,131500
"264 Collingwood Ave, Syracuse, New York","264, South Collingwood Avenue, Eastwood, City of Syracuse, Onondaga County, New York, 13206, United States",43.0643877,-76.1074783,264 Collingwood Ave,Syracuse,100000
"210 Wayne St, Syracuse, New York","210, Wayne Street, Near Northeast, City of Syracuse, Onondaga County, New York, 13203, United States",43.0552661,-76.13982485,210 Wayne St,Syracuse,93600
"8200 Caughdenoy Rd, Clay, New York","8200, Caughdenoy Road, Rodger Corner, Town of Clay, Onondaga County, New York, 13041, United States",43.1675174,-76.1585833,8200 Caughdenoy Rd,Clay,339000
"4806 Huntwood Path, Manlius (town), New York","4806, Huntwood Path, High Bridge, Town of Manlius, Onondaga County, New York, 13104, United States",43.0116246,-76.002939,4806 Huntwood Path,Manlius (town),211000
"4672 Palmer Rd, Manlius (town), New York","4672, Palmer Road, Peck Hill, Town of Manlius, Onondaga County, New York, 13104, United States",42.9984222,-75.9170179,4672 Palmer Rd,Manlius (town),180400
"309 Hulbert St, Minoa, New York","309, Hulbert Street, Village of Minoa, Town of Manlius, Onondaga County, New York, 13116, United States",43.0703557,-76.0067508,309 Hulbert St,Minoa,109000
"111 Walters Dr, Salina, New York","111, Walters Drive, Town of Salina, Onondaga County, New York, 13088, United States",43.1138107,-76.22667964553014,111 Walters Dr,Salina,215000
"1485 Genesee St, Skaneateles (town), New York","1485, East Genesee Street, Village of Skaneateles, Town of Skaneateles, Onondaga County, New York, 13152, United States",42.9453264,-76.4020645,1485 Genesee St,Skaneateles (town),318000
"510 Elm St, Syracuse, New York","510, Elm Street, Near Eastside, City of Syracuse, Onondaga County, New York, 13203, United States",43.0585523,-76.1303395,510 Elm St,Syracuse,100000
"134-36 Holland St, Syracuse, New York","Holland Street, Near Westside, City of Syracuse, Onondaga County, New York, 13204, United States",43.037941,-76.163433,134-36 Holland St,Syracuse,55000
"216 Hamilton Rd, Cicero, New York","216, Hamilton Road, Village of North Syracuse, Town of Cicero, Onondaga County, New York, 13212, United States",43.136495,-76.11073414276206,216 Hamilton Rd,Cicero,145000
"4511 James St, DeWitt, New York","4511, James Street, Village of East Syracuse, Town of De Witt, Onondaga County, New York, 13057, United States",43.069988,-76.0843469,4511 James St,DeWitt,146000
"417 Highland Ave, East Syracuse, New York","417, Highland Avenue, Village of East Syracuse, Town of De Witt, Onondaga County, New York, 13057, United States",43.0696727,-76.0799414,417 Highland Ave,East Syracuse,125000
"201 Edden Ln, North Syracuse, New York","201, Edden Lane, Village of North Syracuse, Town of Clay, Onondaga County, New York, 13212, United States",43.1397745,-76.14150972734882,201 Edden Ln,North Syracuse,140000
"5111 Skyline Dr, Onondaga, New York","5111, Skyline Drive, City of Syracuse, Onondaga County, New York, 13215, United States",42.9862688,-76.164731,5111 Skyline Dr,Onondaga,231500
"424 Woods Rd, Solvay, New York","424, Woods Road, City of Syracuse, Town of Geddes, Onondaga County, New York, 13209, United States",43.058114,-76.2049711,424 Woods Rd,Solvay,67500
"148 Lynwood Ave, Syracuse, New York","148, Lynwood Avenue, Eastwood, City of Syracuse, Onondaga County, New York, 13206, United States",43.0705378,-76.1013393,148 Lynwood Ave,Syracuse,176000
"165 Minerva St, Syracuse, New York","165, Minerva Street, North Valley, City of Syracuse, Onondaga County, New York, 13205, United States",43.0027847,-76.1447422,165 Minerva St,Syracuse,120000
"1621 Burnet Ave, Syracuse, New York","1621, Burnet Avenue, Near Eastside, City of Syracuse, Onondaga County, New York, 13206, United States",43.0567126,-76.1136322,1621 Burnet Ave,Syracuse,119900
"1834-36 Butternut St, Syracuse, New York","Butternut Street, City of Syracuse, Onondaga County, New York, 13208, United States",43.057426,-76.1526688,1834-36 Butternut St,Syracuse,110000
"175 Searlwyn Rd, Syracuse, New York","175, Searlwyn Road, South Valley, City of Syracuse, Onondaga County, New York, 13205, United States",42.9916957,-76.1410909,175 Searlwyn Rd,Syracuse,106200
"113 Briggs St, Syracuse, New York","113, Briggs Street, Northside, City of Syracuse, Onondaga County, New York, 13208, United States",43.0766388,-76.1421197,113 Briggs St,Syracuse,105000
"129-33 Collingwood Ave, Syracuse, New York","South Collingwood Avenue, Eastwood, City of Syracuse, Onondaga County, New York, 13206, United States",43.0641389,-76.1071791,129-33 Collingwood Ave,Syracuse,50000
"129-33 Collingwood Ave, Syracuse, New York","South Collingwood Avenue, Eastwood, City of Syracuse, Onondaga County, New York, 13206, United States",43.0641389,-76.1071791,129-33 Collingwood Ave,Syracuse,45500
"112 Oberst St, Syracuse, New York","112, Oberst Street, City of Syracuse, Onondaga County, New York, 13208, United States",43.0638636,-76.1442444,112 Oberst St,Syracuse,10000
"1636 Westmoreland Ave, Syracuse, New York","1636, Westmoreland Avenue, University Neighborhood, City of Syracuse, Onondaga County, New York, 13210, United States",43.0207486,-76.1132229,1636 Westmoreland Ave,Syracuse,2300
"114 Anderson Ave, Syracuse, New York","114, Anderson Avenue, North Valley, City of Syracuse, Onondaga County, New York, 13205, United States",43.0082116,-76.1434349,114 Anderson Ave,Syracuse,2000
"107 Timwood Dr, Van Buren, New York","107, Timwood Drive, Village Green, Town of Van Buren, Onondaga County, New York, 13027, United States",43.1317207,-76.3086714,107 Timwood Dr,Van Buren,213000
"107 Timwood Dr, Van Buren, New York","107, Timwood Drive, Village Green, Town of Van Buren, Onondaga County, New York, 13027, United States",43.1317207,-76.3086714,107 Timwood Dr,Van Buren,213000
"201 Snowdale Dr, Van Buren, New York","201, Snowdale Drive, Seneca Knolls, City of Syracuse, Onondaga County, New York, 13209, United States",43.1202806,-76.2949935,201 Snowdale Dr,Van Buren,140000
"109 Cross Rd, Camillus (town), New York","109, Cross Road, Stanley Manor, Fairmount, Town of Camillus, Onondaga County, New York, 13031, United States",43.0433339,-76.2602779,109 Cross Rd,Camillus (town),161500
"8 South St, Camillus (village), New York","8, South Street, Village of Camillus, Town of Camillus, Onondaga County, New York, 13031, United States",43.0380137,-76.3081157,8 South St,Camillus (village),50000
"6514 Lakeshore Rd, Cicero, New York","6514, Lakeshore Road, Lower South Bay, Town of Cicero, Onondaga County, New York, 13039, United States",43.1952945,-76.071484,6514 Lakeshore Rd,Cicero,20000
"105 Gordon Rd, Clay, New York","105, Gordon Road, City of Syracuse, Onondaga County, New York, 13212, United States",43.1401618,-76.1438931,105 Gordon Rd,Clay,180850
"6975 Woodchuck Hill Rd, DeWitt, New York","6975, Woodchuck Hill Road, Town of De Witt, Onondaga County, New York, 13066, United States",43.0106382,-76.0384937,6975 Woodchuck Hill Rd,DeWitt,445000
"1032 State Fair Blvd, Geddes, New York","1032, State Fair Boulevard, Lakeside, City of Syracuse, Town of Geddes, Onondaga County, New York, 13209, United States",43.1011048,-76.2490015,1032 State Fair Blvd,Geddes,120000
"9128 Whistling Swan Ln, Manlius (town), New York","9128, Whistling Swan Lane, Town of Manlius, Onondaga County, New York, 13104, United States",42.9898295,-75.9386298,9128 Whistling Swan Ln,Manlius (town),715000
"144 Summerhaven Dr, Manlius (town), New York","144, Summerhaven Drive, Town of Manlius, Onondaga County, New York, 13057, United States",43.04919249508741,-76.01340896577643,144 Summerhaven Dr,Manlius (town),320000
"4959 Ravine Rd, Manlius (town), New York","4959, Ravine Road, High Bridge, Town of Manlius, Onondaga County, New York, 13066, United States",43.0145123,-76.0079879,4959 Ravine Rd,Manlius (town),250000
"2 Fruitwood Dr, Salina, New York","2, Fruitwood Drive, Town of Salina, Onondaga County, New York, 13090, United States",43.12178915,-76.23262001674996,2 Fruitwood Dr,Salina,124663
"226 Ross Pk, Syracuse, New York","226, Ross Park, Northside, City of Syracuse, Onondaga County, New York, 13208, United States",43.0762754,-76.1453243,226 Ross Pk,Syracuse,205000
"2268 Connell Terr, Lysander, New York","2268, Connell Terrace, Town of Lysander, Onondaga County, New York, 13027, United States",43.1646106,-76.3498439,2268 Connell Terr,Lysander,147001
"213 Palmer Dr, Manlius (town), New York","213, Palmer Drive, Town of Manlius, Onondaga County, New York, 13066, United States",43.0308602,-76.02621140959874,213 Palmer Dr,Manlius (town),239900
"5816 Marlow Dr, Manlius (town), New York","5816, Marlow Drive, Town of Manlius, Onondaga County, New York, 13057, United States",43.0523365,-76.02412456580502,5816 Marlow Dr,Manlius (town),210000
"31 Kinderwood Dr, Marcellus (village), New York","31, Kinderwood Drive, Village of Marcellus, Town of Marcellus, Onondaga County, New York, 13108, United States",42.9869171,-76.3349408,31 Kinderwood Dr,Marcellus (village),314900
"4833 Mcdonald Rd, Onondaga, New York","4833, McDonald Road, City of Syracuse, Onondaga County, New York, 13215, United States",43.017518,-76.180996,4833 Mcdonald Rd,Onondaga,40000
"5069 Betsy Ross Way, Salina, New York","5069, Betsy Ross Way, The Meadows, Salina, Town of Salina, Onondaga County, New York, 13088, United States",43.1086817,-76.1659601,5069 Betsy Ross Way,Salina,255000
"193 Ferncliff Ave, Salina, New York","193, Ferncliff Avenue, Galeville, Town of Salina, Onondaga County, New York, 13088, United States",43.0878607,-76.17699854890532,193 Ferncliff Ave,Salina,180550
"1706 Geddes St, Syracuse, New York","1706, South Geddes Street, Strathmore, City of Syracuse, Onondaga County, New York, 13207, United States",43.030429,-76.1755201,1706 Geddes St,Syracuse,58000
"5507 Rolling Meadows Way, Camillus (town), New York","5507, Rolling Meadows Way, Town of Camillus, Onondaga County, New York, 13031, United States",43.0381915,-76.3264066,5507 Rolling Meadows Way,Camillus (town),395000
"116 Fernpark Dr, Camillus (town), New York","116, Fernpark Drive, Stanley Manor, Fairmount, Town of Camillus, Onondaga County, New York, 13031, United States",43.035779,-76.2559254,116 Fernpark Dr,Camillus (town),185000
"203 Mansfield Dr, Camillus (town), New York","203, Mansfield Drive, West Genesee Terrace, Fairmount, Town of Camillus, Onondaga County, New York, 13031, United States",43.0450598,-76.2597439,203 Mansfield Dr,Camillus (town),146000
" Kasson Rd, Camillus (town), New York","Kasson Road, Fairmount, Town of Camillus, Marcellus, Onondaga County, New York, 13031, United States",43.0401414,-76.2744372, Kasson Rd,Camillus (town),12000
"303 Windsor Dr, DeWitt, New York","303, Windsor Drive, City of Syracuse, Onondaga County, New York, 13214, United States",43.04068795,-76.07335227398758,303 Windsor Dr,DeWitt,4500
"5979 Sandbank Rd, Elbridge (town), New York","5979, Sandbank Road, Village of Elbridge, Town of Elbridge, Onondaga County, New York, 13080, United States",43.0598267,-76.4296909,5979 Sandbank Rd,Elbridge (town),62999
"6405 Killoe Rd, Lysander, New York","6405, Killoe Road, Town of Lysander, Onondaga County, New York, 13027, United States",43.1425028,-76.301881,6405 Killoe Rd,Lysander,805000
"28 Maple St, Marcellus (village), New York","28, Maple Street, Village of Marcellus, Town of Marcellus, Onondaga County, New York, 13108, United States",42.98504415,-76.33594747300238,28 Maple St,Marcellus (village),189000
"4325 Cleveland Rd, Onondaga, New York","4325, Cleveland Road, Onondaga Hill, City of Syracuse, Onondaga County, New York, 13215, United States",42.9801412,-76.1774584,4325 Cleveland Rd,Onondaga,235000
"6853 Thomas Dr, Salina, New York","6853, Thomas Drive, The Meadows, Salina, Town of Salina, Onondaga County, New York, 13088, United States",43.10496965,-76.16722757665903,6853 Thomas Dr,Salina,265000
"213 Crestwood Dr, Salina, New York","213, Crestwood Drive, Salina, City of Syracuse, Onondaga County, New York, 13212, United States",43.115238,-76.1574385794456,213 Crestwood Dr,Salina,138000
"409 Buckley Rd, Salina, New York","409, Buckley Road, Galeville, Town of Salina, Onondaga County, New York, 13088, United States",43.08557925,-76.17584359770082,409 Buckley Rd,Salina,90000
"80 Lake St, Skaneateles (village), New York","80, West Lake Street, Village of Skaneateles, Town of Skaneateles, Onondaga County, New York, 13152, United States",42.93869,-76.433195,80 Lake St,Skaneateles (village),1815000
"1014 Spring St, Syracuse, New York","1014, Spring Street, Washington Square, City of Syracuse, Onondaga County, New York, 13208, United States",43.0700034,-76.1539696,1014 Spring St,Syracuse,154900
"310 Martin St, Syracuse, New York","310, Martin Street, Northside, City of Syracuse, Onondaga County, New York, 13208, United States",43.0821239,-76.1523999,310 Martin St,Syracuse,131000
"1304 Onondaga St, Syracuse, New York","1304, West Onondaga Street, Skunk City, City of Syracuse, Onondaga County, New York, 13204, United States",43.0341,-76.1751665,1304 Onondaga St,Syracuse,75000
"208 Mary St, Syracuse, New York","208, Mary Street, Washington Square, City of Syracuse, Onondaga County, New York, 13208, United States",43.0653444,-76.1484797,208 Mary St,Syracuse,70000
"346-48 Webster Ave, Syracuse, New York","Webster Avenue, Brighton, City of Syracuse, Onondaga County, New York, 13205, United States",43.0224402,-76.1452992,346-48 Webster Ave,Syracuse,130000
"216 Inwood Dr, Camillus (town), New York","216, Inwood Drive, Fairmount, City of Syracuse, Onondaga County, New York, 13219, United States",43.0439064,-76.2410892,216 Inwood Dr,Camillus (town),167500
"8375 Boyko Farm, Cicero, New York","8375, Boyko Farm, Town of Cicero, Onondaga County, New York, 13039, United States",43.1761155,-76.0759065,8375 Boyko Farm,Cicero,235000
"116 Parsons Dr, Geddes, New York","116, Parsons Drive, City of Syracuse, Town of Geddes, Onondaga County, New York, 13219, United States",43.0450789,-76.2137079,116 Parsons Dr,Geddes,100000
"7760 Longbow Way, Lysander, New York","7760, Longbow Way, Town of Lysander, Onondaga County, New York, 13027, United States",43.14396532936975,-76.25913353605041,7760 Longbow Way,Lysander,130000
"5546 Gulf Rd, Manlius (town), New York","5546, Gulf Road, Town of Manlius, Onondaga County, New York, 13037, United States",43.0404899,-75.9214425,5546 Gulf Rd,Manlius (town),335685
"8040 Saintsville Rd, Manlius (town), New York","8040, Saintsville Road, Kirkville, Town of Manlius, Onondaga County, New York, 13082, United States",43.0780327,-75.9663482,8040 Saintsville Rd,Manlius (town),175000
"104&106 Melrose Dr, North Syracuse, New York","Melrose Drive, Village of North Syracuse, Town of Clay, Onondaga County, New York, 13212, United States",43.125164,-76.137775,104&106 Melrose Dr,North Syracuse,77000
"8900 Number 5 Rd E, Pompey, New York","8900, Number 5 Road East, Delphi Falls, Town of Manlius, Onondaga County, New York, 13104, United States",42.8763279,-75.9142648,8900 Number 5 Rd E,Pompey,90000
"212 Berwick Rd S, Salina, New York","212, Berwick Road South, Lyncourt, City of Syracuse, Onondaga County, New York, 13208, United States",43.08271785,-76.1338604926132,212 Berwick Rd S,Salina,145000
"2830 Lake Rd, Skaneateles (town), New York","2830, East Lake Road, Borodino, Village of Skaneateles, Town of Skaneateles, Onondaga County, New York, 13152, United States",42.9083905,-76.3946609,2830 Lake Rd,Skaneateles (town),1700000
"221 Harding St, Syracuse, New York","221, Harding Street, Northside, City of Syracuse, Onondaga County, New York, 13208, United States",43.0795755,-76.1407114,221 Harding St,Syracuse,161000
"137 Arsenal Dr, Syracuse, New York","137, Arsenal Drive, South Valley, City of Syracuse, Onondaga County, New York, 13205, United States",42.9998577,-76.1371552,137 Arsenal Dr,Syracuse,122300
"831 Lemoyne Ave, Syracuse, New York","831, Lemoyne Avenue, Washington Square, City of Syracuse, Onondaga County, New York, 13208, United States",43.0760565,-76.1588449,831 Lemoyne Ave,Syracuse,44000
"329 Beech St, Syracuse, New York","329, North Beech Street, Lincoln Park, City of Syracuse, Onondaga County, New York, 13203, United States",43.0542322,-76.1278619,329 Beech St,Syracuse,2301
"829 Hiawatha Blvd, Syracuse, New York","829, Hiawatha Boulevard East, Washington Square, City of Syracuse, Onondaga County, New York, 13208, United States",43.0796893,-76.1602071,829 Hiawatha Blvd,Syracuse,913
"2010 State St S, Syracuse, New York","2010, South Salina Street, Brighton, City of Syracuse, Onondaga County, New York, 13205, United States",43.0266856,-76.1460964,2010 State St S,Syracuse,854
"402 Avery Ave, Syracuse, New York","402, Avery Avenue, Far Westside, City of Syracuse, Onondaga County, New York, 13204, United States",43.0488138,-76.191955,402 Avery Ave,Syracuse,834
"107 Alvord St, Syracuse, New York","107, South Alvord Street, Near Northeast, City of Syracuse, Onondaga County, New York, 13203, United States",43.0603859,-76.1421367,107 Alvord St,Syracuse,702
"249 Kenmore Ave, Syracuse, New York","249, Kenmore Avenue, North Valley, City of Syracuse, Onondaga County, New York, 13205, United States",43.0142487,-76.1518495,249 Kenmore Ave,Syracuse,665
"106 Alvord St, Syracuse, New York","106, South Alvord Street, Near Northeast, City of Syracuse, Onondaga County, New York, 13203, United States",43.0606297,-76.1419656,106 Alvord St,Syracuse,328
"206-10 Holland St, Syracuse, New York","Holland Street, Near Westside, City of Syracuse, Onondaga County, New York, 13204, United States",43.037941,-76.163433,206-10 Holland St,Syracuse,82
"307 Baker Ave, Syracuse, New York","307, Baker Avenue, Brighton, City of Syracuse, Onondaga County, New York, 13205, United States",43.0280982,-76.1428978,307 Baker Ave,Syracuse,71
"8618 Cobalt Dr, Cicero, New York","Cobalt Dr, Town of Cicero, Onondaga County, New York, 13039, United States",43.1854505,-76.0748694,8618 Cobalt Dr,Cicero,365000
"10 Limetree Ln, Clay, New York","10, Limetree Lane, Town of Clay, Onondaga County, New York, 13090, United States",43.1387218,-76.2105326,10 Limetree Ln,Clay,187000
"8232 Honeysuckle Dr, Clay, New York","8232, Honeysuckle Drive, Town of Clay, Onondaga County, New York, 13090, United States",43.1694371,-76.227352,8232 Honeysuckle Dr,Clay,176000
"4243 Sandbar Ln, Clay, New York","4243, Sandbar Lane, Town of Clay, Onondaga County, New York, 13090, United States",43.1765257,-76.2187878,4243 Sandbar Ln,Clay,151000
"111 Wembridge Dr, DeWitt, New York","Wembridge Drive, Franklin Park, Town of De Witt, Onondaga County, New York, 13057, United States",43.080992,-76.068253,111 Wembridge Dr,DeWitt,116000
"104 Silver St, East Syracuse, New York","104, Silver Street, Village of East Syracuse, Town of De Witt, Onondaga County, New York, 13057, United States",43.0645543,-76.0730752,104 Silver St,East Syracuse,150000
"208 Haywood Rd, Geddes, New York","208, Haywood Road, City of Syracuse, Town of Geddes, Onondaga County, New York, 13219, United States",43.0358502,-76.214108,208 Haywood Rd,Geddes,230000
"426 Terry Rd, Geddes, New York","426, South Terry Road, City of Syracuse, Town of Geddes, Onondaga County, New York, 13219, United States",43.0387047,-76.2202315,426 Terry Rd,Geddes,205000
"4679 Watch Hill Rd, Manlius (village), New York","4679, Watch Hill Road, Village of Manlius, Town of Manlius, Onondaga County, New York, 13104, United States",42.9985662,-75.99660524899919,4679 Watch Hill Rd,Manlius (village),340000
"4418 Oran Station Rd, Pompey, New York","4418, Oran Station Road, Oran, Town of Manlius, Onondaga County, New York, 13104, United States",42.9857528,-75.93402025,4418 Oran Station Rd,Pompey,415000
"123 Circle Rd, Salina, New York","123, Circle Road, Pitcher Hill, Salina, City of Syracuse, Onondaga County, New York, 13212, United States",43.11112485,-76.15108104856932,123 Circle Rd,Salina,205501
"3140 Rickard Rd, Skaneateles (town), New York","3140, Rickard Road, Town of Skaneateles, Marcellus, Onondaga County, New York, 13152, United States",42.9232369,-76.3733908,3140 Rickard Rd,Skaneateles (town),270000
"1904 Colvin St W, Syracuse, New York","1904, West Colvin Street, Strathmore, City of Syracuse, Onondaga County, New York, 13207, United States",43.0227752,-76.1683934,1904 Colvin St W,Syracuse,175000
"149 Malverne Dr, Syracuse, New York","149, Malverne Drive, Northside, City of Syracuse, Onondaga County, New York, 13208, United States",43.0789134,-76.1428965,149 Malverne Dr,Syracuse,141000
"310-12 Burdick Ave, Syracuse, New York","Burdick Avenue, City of Syracuse, Onondaga County, New York, 13208, United States",43.076488,-76.153158,310-12 Burdick Ave,Syracuse,132500
"216 Eldorado St, Syracuse, New York","216, Eldorado Street, Lincoln Park, City of Syracuse, Onondaga County, New York, 13206, United States",43.0634561,-76.1193985,216 Eldorado St,Syracuse,89900
"111 Silverlace Ter, Camillus (town), New York","111, Silverlace Terrace, Fairmount, City of Syracuse, Onondaga County, New York, 13219, United States",43.0391015,-76.2358359,111 Silverlace Ter,Camillus (town),125000
"4922 Joyce Pl, Clay, New York","4922, Joyce Place, Town of Clay, Onondaga County, New York, 13090, United States",43.14806825,-76.18154466825149,4922 Joyce Pl,Clay,235000
"21 Elbridge St, Jordan, New York","21, Elbridge Street, Village of Jordan, Town of Elbridge, Onondaga County, New York, 13080, United States",43.064171,-76.4688207,21 Elbridge St,Jordan,126075
"101 Miller Dr, Manlius (town), New York","101, Miller Drive, Oot Park, Town of Manlius, Onondaga County, New York, 13057, United States",43.0634112,-76.02843826178729,101 Miller Dr,Manlius (town),95000
"401 Pleasant St, Manlius (village), New York","401, East Pleasant Street, Village of Manlius, Town of Manlius, Onondaga County, New York, 13104, United States",43.003653,-75.975251,401 Pleasant St,Manlius (village),300000
"5075 Minuteman Ln, Salina, New York","5075, Minuteman Lane, Salina, Town of Salina, Onondaga County, New York, 13088, United States",43.107402,-76.1649697,5075 Minuteman Ln,Salina,270000
"4150 Jordan Rd, Skaneateles (town), New York","4150, Jordan Road, Willow Glen, Town of Skaneateles, Onondaga County, New York, 13152, United States",42.9725315,-76.4411565,4150 Jordan Rd,Skaneateles (town),86800
"1967 Milton Ave, Solvay, New York","1967, Milton Avenue, City of Syracuse, Town of Geddes, Onondaga County, New York, 13209, United States",43.0623636,-76.2120451,1967 Milton Ave,Solvay,115000
"504 Midler Ave, Syracuse, New York","504, South Midler Avenue, Eastwood, City of Syracuse, Onondaga County, New York, 13206, United States",43.0597596,-76.1044783,504 Midler Ave,Syracuse,123600
"1914-16 Bellevue Ave, Syracuse, New York","Bellevue Avenue, City of Syracuse, Marcellus, Onondaga County, New York, 13219, United States",43.028258,-76.197764,1914-16 Bellevue Ave,Syracuse,85000
"223 Clarence Ave, Syracuse, New York","223, Clarence Avenue, North Valley, City of Syracuse, Onondaga County, New York, 13205, United States",43.0044934,-76.1407544,223 Clarence Ave,Syracuse,81000
"621 Hawley Ave, Syracuse, New York","621, Hawley Avenue, Near Northeast, City of Syracuse, Onondaga County, New York, 13203, United States",43.0545267,-76.1338822,621 Hawley Ave,Syracuse,81000
"211 Resseguie Dr, Van Buren, New York","211, Resseguie Drive, Seneca Knolls, City of Syracuse, Onondaga County, New York, 13209, United States",43.1225148,-76.2961522,211 Resseguie Dr,Van Buren,74900
"107 Roycroft Rd, DeWitt, New York","107, Roycroft Road, Town of De Witt, Onondaga County, New York, 13214, United States",43.04504725,-76.08244376886873,107 Roycroft Rd,DeWitt,175000
"111 Greentree Dr, DeWitt, New York","111, Greentree Drive, Franklin Park, Town of De Witt, Onondaga County, New York, 13057, United States",43.0792118,-76.0744916,111 Greentree Dr,DeWitt,163500
"809 Mcdowell Rd, Elbridge (town), New York","809, McDowell Road, Town of Elbridge, Onondaga County, New York, 13080, United States",43.0838733,-76.4471048,809 Mcdowell Rd,Elbridge (town),600000
"726 State Fair Blvd, Geddes, New York","726, State Fair Boulevard, Lakeside, City of Syracuse, Town of Geddes, Onondaga County, New York, 13209, United States",43.084048,-76.2332431,726 State Fair Blvd,Geddes,275000
"3423 Tall Tree Ln, Lysander, New York","Tall Tree Lane, Town of Lysander, Onondaga County, New York, 13027, United States",43.1604722,-76.2738393,3423 Tall Tree Ln,Lysander,408400
"3423 Tall Tree Ln, Lysander, New York","Tall Tree Lane, Town of Lysander, Onondaga County, New York, 13027, United States",43.1604722,-76.2738393,3423 Tall Tree Ln,Lysander,62500
"638 Lamson Rd, Lysander, New York","638, Lamson Road, Jacksonville, Town of Lysander, Onondaga County, New York, 13027, United States",43.206407,-76.4576087,638 Lamson Rd,Lysander,186000
"105 Edwards Falls Ln, Manlius (town), New York","105, Edwards Falls Lane, Town of Manlius, Onondaga County, New York, 13104, United States",42.990775,-75.9592978,105 Edwards Falls Ln,Manlius (town),519900
"163 Seneca St, Manlius (village), New York","163, West Seneca Street, Village of Manlius, Town of Manlius, Onondaga County, New York, 13104, United States",42.9983772,-75.98448154878086,163 Seneca St,Manlius (village),265000
"3635 Pompey Center Rd, Pompey, New York","3635, Pompey Center Road, Pompey Center, Town of Manlius, Onondaga County, New York, 13104, United States",42.9469319,-75.9559685,3635 Pompey Center Rd,Pompey,180000
"21 Bevell Ln, Salina, New York","21, Bevell Lane, Pitcher Hill, Salina, City of Syracuse, Onondaga County, New York, 13212, United States",43.1170775,-76.15341289197181,21 Bevell Ln,Salina,185000
"224 Beley Ave, Salina, New York","224, Beley Avenue, Hinsdale, Mattydale, City of Syracuse, Onondaga County, New York, 13211, United States",43.1002308,-76.13953534514576,224 Beley Ave,Salina,93500
"257 Edwards Ave, Syracuse, New York","257, South Edwards Avenue, Eastwood, City of Syracuse, Onondaga County, New York, 13206, United States",43.064683,-76.1057649,257 Edwards Ave,Syracuse,140000
"1508 Burnet Ave, Syracuse, New York","1508, Burnet Avenue, Near Eastside, City of Syracuse, Onondaga County, New York, 13206, United States",43.0556714,-76.11608455,1508 Burnet Ave,Syracuse,135000
"161 Hillsdale Ave, Syracuse, New York","161, Hillsdale Avenue, Eastwood, City of Syracuse, Onondaga County, New York, 13206, United States",43.0669453,-76.1084684,161 Hillsdale Ave,Syracuse,74000
"314-16 Loomis Ave, Syracuse, New York","Loomis Avenue, North Valley, City of Syracuse, Onondaga County, New York, 13207, United States",43.008538,-76.153917,314-16 Loomis Ave,Syracuse,50000
"3753 Malibu Hills Dr, Camillus (town), New York","3753, Malibu Hills Drive, City of Syracuse, Onondaga County, New York, 13209, United States",43.0596477,-76.2523284,3753 Malibu Hills Dr,Camillus (town),399900
"4972 Moses Dr, Clay, New York","4972, Moses Drive, Town of Clay, Onondaga County, New York, 13090, United States",43.1441319,-76.1777154,4972 Moses Dr,Clay,250000
"4753 Freestone Rd, Clay, New York","4753, Freestone Road, Woodard, Town of Clay, Onondaga County, New York, 13090, United States",43.1476829,-76.1859858,4753 Freestone Rd,Clay,211000
"7592 Fitzpatrick Dr, Clay, New York","7592, Fitzpatrick Drive, Four Seasons, Town of Clay, Onondaga County, New York, 13088, United States",43.1377765,-76.1790142,7592 Fitzpatrick Dr,Clay,199000
"7775 Main St, Fabius (village), New York","7775, Main Street, Village of Fabius, Town of Fabius, Onondaga County, New York, 13063, United States",42.8351377,-75.9883853,7775 Main St,Fabius (village),55900
"5826 Durham Ln, Manlius (town), New York","5826, Durham Lane, Town of Manlius, Onondaga County, New York, 13057, United States",43.05321125,-76.0260411,5826 Durham Ln,Manlius (town),251000
"908 Buckley Rd, Salina, New York","908, Buckley Road, Galeville, Town of Salina, Onondaga County, New York, 13088, United States",43.0888273,-76.17353640022625,908 Buckley Rd,Salina,167000
"103 Campbell Rd, Salina, New York","103, Campbell Road, Hinsdale, Mattydale, City of Syracuse, Onondaga County, New York, 13211, United States",43.10278085,-76.14487721630688,103 Campbell Rd,Salina,126000
"240-44 Miles Ave, Syracuse, New York","Miles Avenue, University Neighborhood, Dewitt, Onondaga County, New York, 13210, United States",43.032585,-76.1161,240-44 Miles Ave,Syracuse,275000
"533-35 Clarendon St, Syracuse, New York","Clarendon Street, Westcott, Dewitt, Onondaga County, New York, 13210, United States",43.0380245,-76.1275755,533-35 Clarendon St,Syracuse,170000
"113 Glenview Pkwy, Camillus (town), New York","113, Glenview Parkway, Fairmount, City of Syracuse, Onondaga County, New York, 13219, United States",43.0425474,-76.2376094,113 Glenview Pkwy,Camillus (town),180250
"6148 Ridgecrest Dr, Cicero, New York","6148, Ridgecrest Drive, City of Syracuse, Onondaga County, New York, 13212, United States",43.1403317,-76.0956975,6148 Ridgecrest Dr,Cicero,262000
"8364 Factory St, Cicero, New York","8364, Factory Street, Town of Cicero, Onondaga County, New York, 13039, United States",43.1732675,-76.1194075,8364 Factory St,Cicero,222000
"108 Homer Ave, Geddes, New York","108, Homer Avenue, City of Syracuse, Town of Geddes, Onondaga County, New York, 13219, United States",43.0371446,-76.1891783,108 Homer Ave,Geddes,36500
"501 Cypress St, Liverpool, New York","501, Cypress Street, Village of Liverpool, Town of Salina, Onondaga County, New York, 13088, United States",43.10481485,-76.20262657606003,501 Cypress St,Liverpool,173000
"3401 Long Shadow Dr, Lysander, New York","3401, Long Shadow Drive, Town of Lysander, Onondaga County, New York, 13027, United States",43.1653573,-76.2768956,3401 Long Shadow Dr,Lysander,450000
"8722 N Entry Rd, Lysander, New York","8722, North Entry Road, Radisson, Town of Lysander, Onondaga County, New York, 13027, United States",43.1872137,-76.3008154,8722 N Entry Rd,Lysander,356000
"9481 E Mud Lake Rd, Lysander, New York","9481, East Mud Lake Road, Little Utica, City of Fulton, Onondaga County, New York, 13069, United States",43.2295455,-76.4032999,9481 E Mud Lake Rd,Lysander,165000
"103 Minoa Lakes Dr, Minoa, New York","103, Minoa Lakes Drive, Village of Minoa, Town of Manlius, Onondaga County, New York, 13116, United States",43.06582885714285,-76.01103469387755,103 Minoa Lakes Dr,Minoa,55000
"103 Minoa Lakes Dr, Minoa, New York","103, Minoa Lakes Drive, Village of Minoa, Town of Manlius, Onondaga County, New York, 13116, United States",43.06582885714285,-76.01103469387755,103 Minoa Lakes Dr,Minoa,24000
"4301 Rohe Rd, Onondaga, New York","4301, Rohe Road, City of Syracuse, Marcellus, Onondaga County, New York, 13215, United States",42.9750051,-76.2382812,4301 Rohe Rd,Onondaga,190000
"111 Marilyn Ave, Salina, New York","111, Marilyn Avenue, Salina, City of Syracuse, Onondaga County, New York, 13212, United States",43.113644050000005,-76.1552888866413,111 Marilyn Ave,Salina,180000
"413 Orwood Pl, Salina, New York","413, Orwood Place, Lyncourt, City of Syracuse, Onondaga County, New York, 13208, United States",43.080742400000005,-76.13145706942362,413 Orwood Pl,Salina,170000
"201 Glendale Ave, Salina, New York","201, Glendale Avenue, Galeville, Town of Salina, Onondaga County, New York, 13088, United States",43.08893605,-76.17527941688311,201 Glendale Ave,Salina,157600
"217-19 Norwood Ave, Syracuse, New York","Norwood Avenue, Eastwood, Lyncourt, City of Syracuse, Onondaga County, New York, 13206, United States",43.072572,-76.109797,217-19 Norwood Ave,Syracuse,148400
"212 Evaleen Ave, Syracuse, New York","212, Evaleen Avenue, North Valley, City of Syracuse, Onondaga County, New York, 13207, United States",43.0097648,-76.1516234,212 Evaleen Ave,Syracuse,123600
"205 Grumbach Ave, Syracuse, New York","205, Grumbach Avenue, City of Syracuse, Onondaga County, New York, 13203, United States",43.0644321,-76.1398123,205 Grumbach Ave,Syracuse,38701
"220 Fay Ln, Minoa, New York","220, Fay Lane, Village of Minoa, Town of Manlius, Onondaga County, New York, 13116, United States",43.0787349,-76.0079873,220 Fay Ln,Minoa,165000
"10 Grove St, Baldwinsville, New York","10, Grove Street, Village of Baldwinsville, Town of Van Buren, Onondaga County, New York, 13027, United States",43.1544116,-76.3298155,10 Grove St,Baldwinsville,215000
"84 Brown St, Baldwinsville, New York","84, Brown Street, Village of Baldwinsville, Town of Lysander, Onondaga County, New York, 13027, United States",43.169142,-76.346473,84 Brown St,Baldwinsville,190000
"8 Grove St, Baldwinsville, New York","8, Grove Street, Village of Baldwinsville, Town of Van Buren, Onondaga County, New York, 13027, United States",43.1544533,-76.3297046,8 Grove St,Baldwinsville,140000
"8769 Wedgefield Ln, Cicero, New York","8769, Wedgefield Lane, Town of Cicero, Onondaga County, New York, 13039, United States",43.1922869,-76.0462013,8769 Wedgefield Ln,Cicero,435000
"4835 Appaloosa Trl, Clay, New York","4835, Appaloosa Trail, Town of Clay, Onondaga County, New York, 13041, United States",43.1889589,-76.1834296,4835 Appaloosa Trl,Clay,475000
"8191 Honeysuckle Dr, Clay, New York","8191, Honeysuckle Drive, Town of Clay, Onondaga County, New York, 13090, United States",43.1684248,-76.2260082,8191 Honeysuckle Dr,Clay,182000
"4796 Royal Meadow Dr, Clay, New York","4796, Royal Meadow Drive, Clairmont, Woodard, Town of Clay, Onondaga County, New York, 13088, United States",43.1364622,-76.1831608,4796 Royal Meadow Dr,Clay,164450
"113 Dolshire Dr, Clay, New York","113, Dolshire Drive, City of Syracuse, Onondaga County, New York, 13212, United States",43.1188846,-76.1540918,113 Dolshire Dr,Clay,118000
"2950 Eager Rd, LaFayette, New York","2950, Eager Road, Town of LaFayette, Onondaga County, New York, 13084, United States",42.913944,-76.0790396,2950 Eager Rd,LaFayette,218000
"8309 Partridgeberry Dr, Lysander, New York","8309, Partridgeberry Drive, Radisson, Town of Lysander, Onondaga County, New York, 13027, United States",43.177111,-76.2843522,8309 Partridgeberry Dr,Lysander,330000
"3035 Stevenage Dr, Lysander, New York","3035, Stevenage Drive, Radisson, Town of Lysander, Onondaga County, New York, 13027, United States",43.1960572,-76.298055,3035 Stevenage Dr,Lysander,299000
"2201 Connell Ter, Lysander, New York","2201, Connell Terrace, Town of Lysander, Onondaga County, New York, 13027, United States",43.1654758,-76.3537763,2201 Connell Ter,Lysander,200000
"7645 Berkshire Pkwy, Manlius (town), New York","7645, Berkshire Parkway, Village of Manlius, Town of Manlius, Onondaga County, New York, 13104, United States",43.0104189,-75.99450839529092,7645 Berkshire Pkwy,Manlius (town),290000
"101 Manor Dr, Manlius (town), New York","101, Manor Drive, Oot Park, Town of Manlius, Onondaga County, New York, 13057, United States",43.0626614,-76.02143910565431,101 Manor Dr,Manlius (town),230000
"108 Richmond Rd, Manlius (town), New York","108, Richmond Road East, Oot Park, Town of Manlius, Onondaga County, New York, 13057, United States",43.06699655,-76.0287844067106,108 Richmond Rd,Manlius (town),109900
"4972 Cindy Lane, Onondaga, New York","Cindy Lane, Town of Onondaga, Onondaga County, New York, 13215, United States",42.9817937,-76.1753808,4972 Cindy Lane,Onondaga,521800
"4585 Beef St, Onondaga, New York","4585, Beef Street, Howlett Hill, City of Syracuse, Marcellus, Onondaga County, New York, 13215, United States",42.9929284,-76.2758989,4585 Beef St,Onondaga,285000
"4977 Northfield Rd, Onondaga, New York","4977, Northfield Road, City of Syracuse, Marcellus, Onondaga County, New York, 13215, United States",43.0114091,-76.2231194,4977 Northfield Rd,Onondaga,275000
" Cleveland Road, Onondaga, New York","Cleveland Road, Onondaga Hill, Town of Onondaga, Onondaga County, New York, 13215, United States",42.978482,-76.17684, Cleveland Road,Onondaga,75000
"2411 Bockes Rd, Spafford, New York","2411, Bockes Road, Borodino Landing, Town of Spafford, Onondaga County, New York, 13152, United States",42.85746465846999,-76.34541492831703,2411 Bockes Rd,Spafford,100000
"954 Lemoyne Ave, Syracuse, New York","954, Lemoyne Avenue, Washington Square, City of Syracuse, Onondaga County, New York, 13208, United States",43.0776476,-76.1570834,954 Lemoyne Ave,Syracuse,102500
"1405 Bellevue Ave, Syracuse, New York","1405, Bellevue Avenue, Skunk City, City of Syracuse, Onondaga County, New York, 13204, United States",43.0325454,-76.1787941,1405 Bellevue Ave,Syracuse,35000
" Pottery Rd, Van Buren, New York","Pottery Road, Garden Terrace, Town of Camillus, Onondaga County, New York, 13164, United States",43.0913986,-76.2845953, Pottery Rd,Van Buren,66000
"107 Scott Ave, Camillus (town), New York","107, Scott Avenue, Fairmount, City of Syracuse, Onondaga County, New York, 13219, United States",43.0464385,-76.2450874,107 Scott Ave,Camillus (town),107000
"7838 Eisenhower Blvd, Cicero, New York","7838, Eisenhower Boulevard, Bridgeport, Town of Cicero, Onondaga County, New York, 13030, United States",43.1480473,-75.983887,7838 Eisenhower Blvd,Cicero,117000
"9129 Ashley Landing Dr, Clay, New York","9129, Ashley Landing Drive, Oak Orchard, Town of Clay, Onondaga County, New York, 13041, United States",43.2122147,-76.2080956,9129 Ashley Landing Dr,Clay,385000
"4960 Harvest Ln, Clay, New York","4960, Harvest Lane, Town of Clay, Onondaga County, New York, 13088, United States",43.1248836,-76.1731661,4960 Harvest Ln,Clay,245000
"4762 Black Oak Dr, Clay, New York","4762, Black Oak Drive, Clairmont, Town of Clay, Onondaga County, New York, 13088, United States",43.1336387,-76.1858508,4762 Black Oak Dr,Clay,230000
"3289 Greenleafe Dr, Lysander, New York","3289, Greenleafe Drive, Town of Lysander, Onondaga County, New York, 13135, United States",43.2063892,-76.2908926,3289 Greenleafe Dr,Lysander,408000
"2409 Kellogg Rd, Lysander, New York","2409, Kellogg Road, Town of Lysander, Onondaga County, New York, 13027, United States",43.1976593,-76.3401737,2409 Kellogg Rd,Lysander,150000
"245 Cannonball Way, Manlius (town), New York","245, Cannonball Way, Oot Park, Town of Manlius, Onondaga County, New York, 13057, United States",43.0688301,-76.03144674233204,245 Cannonball Way,Manlius (town),330000
"159 Dutton Ave, Onondaga, New York","159, Dutton Avenue, Nedrow, Town of Onondaga, Onondaga County, New York, 13120, United States",42.9750919,-76.1457807,159 Dutton Ave,Onondaga,5300
"107 Knowland Dr, Salina, New York","107, Knowland Drive, Town of Salina, Onondaga County, New York, 13090, United States",43.12491775,-76.23467483904186,107 Knowland Dr,Salina,195000
"306 Hall Ave, Solvay, New York","306, Hall Avenue, City of Syracuse, Town of Geddes, Onondaga County, New York, 13209, United States",43.0593345,-76.2066228,306 Hall Ave,Solvay,151500
"333-35 Palmer Ave, Syracuse, New York","Palmer Avenue, City of Syracuse, Onondaga County, New York, 13204, United States",43.03332,-76.162393,333-35 Palmer Ave,Syracuse,115111
"101 Bradley St, Syracuse, New York","101, Bradley Street, Strathmore, City of Syracuse, Onondaga County, New York, 13204, United States",43.0360313,-76.1719648,101 Bradley St,Syracuse,58000
"617 Kirkpatrick St, Syracuse, New York","617, Kirkpatrick Street, Washington Square, City of Syracuse, Onondaga County, New York, 13208, United States",43.0692715,-76.1536418,617 Kirkpatrick St,Syracuse,52000
"25 Warren St, Tully (village), New York","25, Warren Street, Village of Tully, Town of Tully, Onondaga County, New York, 13159, United States",42.7994144,-76.1093753,25 Warren St,Tully (village),152900
"235 Parsons Rd, Camillus (town), New York","235, Parsons Road, Parson Farms, Town of Camillus, Onondaga County, New York, 13031, United States",43.034921,-76.2840143,235 Parsons Rd,Camillus (town),195000
"8606 Snowshoe Trl, Cicero, New York","8606, Snowshoe Trail, Town of Cicero, Onondaga County, New York, 13039, United States",43.1883936,-76.1006698,8606 Snowshoe Trl,Cicero,238000
"4818 Royal Meadow Dr, Clay, New York","4818, Royal Meadow Drive, Clairmont, Woodard, Town of Clay, Onondaga County, New York, 13088, United States",43.1367442,-76.1818749,4818 Royal Meadow Dr,Clay,227000
"3584 Redhead Ter, Clay, New York","3584, Redhead Terrace, Moyers Corners, Town of Clay, Onondaga County, New York, 13090, United States",43.1787282,-76.2523924,3584 Redhead Ter,Clay,203150
" Oswego Rd, Clay, New York","Oswego Road, Town of Clay, Town of Schroeppel, Oswego County, New York, United States",43.201561,-76.277848, Oswego Rd,Clay,36000
"8798 Plainville Rd, Lysander, New York","8798, Plainville Road, Plainville, Town of Lysander, Onondaga County, New York, 13027, United States",43.1956549,-76.4583507,8798 Plainville Rd,Lysander,175000
"4497 Odell Place, Onondaga, New York","4497, Odell Place, Southwood, Town of Onondaga, Onondaga County, New York, 13078, United States",42.989108698113206,-76.11198749056604,4497 Odell Place,Onondaga,250000
"4670 Hartsfield Pl, Pompey, New York","4670, Hartsfield Place, Town of Manlius, Onondaga County, New York, 13104, United States",42.9873882,-75.9628727,4670 Hartsfield Pl,Pompey,720000
"301 Kirsch Dr, Salina, New York","301, Kirsch Drive, Hinsdale, Mattydale, City of Syracuse, Onondaga County, New York, 13211, United States",43.0991987,-76.1499683967609,301 Kirsch Dr,Salina,155000
"111 Breman Ave, Salina, New York","111, Breman Avenue, Hinsdale, Mattydale, City of Syracuse, Onondaga County, New York, 13211, United States",43.0992779,-76.13659136981084,111 Breman Ave,Salina,111300
"103 Mary St, Syracuse, New York","103, Mary Street, Washington Square, City of Syracuse, Onondaga County, New York, 13208, United States",43.0627366,-76.1508763,103 Mary St,Syracuse,85000
"105 Mary St, Syracuse, New York","105, Mary Street, Washington Square, City of Syracuse, Onondaga County, New York, 13208, United States",43.0628121,-76.1508036,105 Mary St,Syracuse,80000
"207 Apple St, Syracuse, New York","207, Apple Street, Westside, City of Syracuse, Onondaga County, New York, 13204, United States",43.0510044,-76.1756812,207 Apple St,Syracuse,65000
"616-18 Richmond Ave, Syracuse, New York","Richmond Avenue, Westside, City of Syracuse, Onondaga County, New York, 13204, United States",43.050214,-76.17301,616-18 Richmond Ave,Syracuse,65000
"144 Corning Ave, Syracuse, New York","144, West Corning Avenue, Brighton, City of Syracuse, Onondaga County, New York, 13205, United States",43.0187384,-76.1439915,144 Corning Ave,Syracuse,30000
"115 Murray Ave, Syracuse, New York","115, Murray Avenue, City of Syracuse, Onondaga County, New York, 13208, United States",43.0770564,-76.156537,115 Murray Ave,Syracuse,5000
"434 Idlewood Blvd, Van Buren, New York","434, Idlewood Boulevard, Village Green, Town of Van Buren, Onondaga County, New York, 13027, United States",43.135198,-76.3135777,434 Idlewood Blvd,Van Buren,30000
"107 Old Semet Ln, Camillus (town), New York","107, Old Semet Lane, Fairmount, City of Syracuse, Onondaga County, New York, 13219, United States",43.0318695,-76.2372539,107 Old Semet Ln,Camillus (town),252500
"2552 Rolling Hills Rd, Camillus (town), New York","2552, Rolling Hills Road, Town of Camillus, Onondaga County, New York, 13031, United States",43.0566463,-76.3331811,2552 Rolling Hills Rd,Camillus (town),195000
"9378 Woodlawn Dr, Cicero, New York","9378, Woodlawn Drive, Brewerton, Town of Cicero, Onondaga County, New York, 13029, United States",43.2241813,-76.142968,9378 Woodlawn Dr,Cicero,185000
"8040 Oswego Rd, Clay, New York","8040, Oswego Road, Bayberry, Town of Clay, Onondaga County, New York, 13090, United States",43.1603829,-76.2306705,8040 Oswego Rd,Clay,125000
"4492 Barker Hill Rd, DeWitt, New York","4492, Barker Hill Road, Southwood, Town of De Witt, Onondaga County, New York, 13078, United States",42.9896518,-76.107935,4492 Barker Hill Rd,DeWitt,265000
"1201 Church Rd, Lysander, New York","1201, Church Road, Hortontown, Town of Lysander, Onondaga County, New York, 13027, United States",43.1983593,-76.4239814,1201 Church Rd,Lysander,315000
"8195 Bluffview Dr, Manlius (town), New York","8195, Bluffview Drive, Town of Manlius, Onondaga County, New York, 13104, United States",42.9934038,-75.9623187,8195 Bluffview Dr,Manlius (town),265000
"209 Palmer Dr, Manlius (town), New York","209, Palmer Drive, Town of Manlius, Onondaga County, New York, 13066, United States",43.03037295,-76.02599099595366,209 Palmer Dr,Manlius (town),240000
"14 Kinderwood Dr, Marcellus (village), New York","14, Kinderwood Drive, Village of Marcellus, Town of Marcellus, Onondaga County, New York, 13108, United States",42.9888982,-76.3358553,14 Kinderwood Dr,Marcellus (village),332500
"7632 Broadfield Rd, Pompey, New York","7632, Broadfield Road, Town of Manlius, Onondaga County, New York, 13104, United States",42.9747855,-75.9972007,7632 Broadfield Rd,Pompey,210000
"323 Glendale Ave, Salina, New York","323, Glendale Avenue, Galeville, Town of Salina, Onondaga County, New York, 13088, United States",43.09190855,-76.17955210438888,323 Glendale Ave,Salina,125000
"142 Glenwood Ave, Syracuse, New York","142, Glenwood Avenue, Elmwood, City of Syracuse, Onondaga County, New York, 13207, United States",43.01957,-76.1622903,142 Glenwood Ave,Syracuse,174000
"432 Lillian Ave, Syracuse, New York","432, Lillian Avenue, Eastwood, Lyncourt, City of Syracuse, Onondaga County, New York, 13206, United States",43.0744094,-76.1108133,432 Lillian Ave,Syracuse,115000
"106 Green St Pl, Syracuse, New York","106, Green Street Place, Near Northeast, City of Syracuse, Onondaga County, New York, 13203, United States",43.0555372,-76.13634,106 Green St Pl,Syracuse,33000
"153 Minerva St, Syracuse, New York","153, Minerva Street, North Valley, City of Syracuse, Onondaga County, New York, 13205, United States",43.0027814,-76.1445147,153 Minerva St,Syracuse,75000
"720 Stinard Ave, Syracuse, New York","720, Stinard Avenue, Strathmore, City of Syracuse, Onondaga County, New York, 13207, United States",43.0244252,-76.1738332,720 Stinard Ave,Syracuse,75000
"215 Woodland Ave, Syracuse, New York","215, Woodland Avenue, Brighton, City of Syracuse, Onondaga County, New York, 13205, United States",43.0299494,-76.1433077,215 Woodland Ave,Syracuse,62500
"5802 Ike Dixon Rd, Camillus (town), New York","5802, Ike Dixon Road, Town of Camillus, Onondaga County, New York, 13031, United States",43.0552996,-76.3457295,5802 Ike Dixon Rd,Camillus (town),320000
"100 Farmingdale Rd, Camillus (town), New York","100, Farmingdale Road, Amboy, Town of Camillus, Onondaga County, New York, 13031, United States",43.0645884,-76.2700097,100 Farmingdale Rd,Camillus (town),225000
"504 Barnstable Ct, Camillus (town), New York","504, Barnstable Court, Windcrest Park, Town of Camillus, Onondaga County, New York, 13031, United States",43.0333451,-76.2897188,504 Barnstable Ct,Camillus (town),165000
"6413 Finish Line Trl, Cicero, New York","6413, Finish Line Trail, Town of Cicero, Onondaga County, New York, 13029, United States",43.1931344,-76.087176,6413 Finish Line Trl,Cicero,399000
"8516 Long Leaf Trl, Clay, New York","8516, Long Leaf Trail, Town of Clay, Onondaga County, New York, 13090, United States",43.1768441,-76.2382333,8516 Long Leaf Trl,Clay,485000
"4044 Winterpark Dr, Clay, New York","4044, Winterpark Drive, Town of Clay, Onondaga County, New York, 13090, United States",43.1633214,-76.2327467,4044 Winterpark Dr,Clay,215000
"8050 Candela Ln, Clay, New York","8050, Candela Lane, Town of Clay, Onondaga County, New York, 13041, United States",43.1593057,-76.13401,8050 Candela Ln,Clay,200000
"7891 Sagamore Dr, Clay, New York","7891, Sagamore Drive North, Bayberry, Town of Clay, Onondaga County, New York, 13090, United States",43.1528368,-76.2236605,7891 Sagamore Dr,Clay,200000
"4156A Burningtree Rd, Clay, New York","4156 A, Burningtree Road, Town of Clay, Onondaga County, New York, 13090, United States",43.1776685,-76.2258983,4156A Burningtree Rd,Clay,134900
"4333 Belmont Dr, Clay, New York","4333, Belmont Drive, Town of Clay, Onondaga County, New York, 13090, United States",43.1298111,-76.2152098,4333 Belmont Dr,Clay,123000
"4300 Tiger Lily Path, Clay, New York","Tiger Lily Path, Town of Clay, Onondaga County, New York, 13090, United States",43.1581507,-76.2092185,4300 Tiger Lily Path,Clay,66500
"30 Cotty Dr, DeWitt, New York","30, Cotty Drive, Town of De Witt, Onondaga County, New York, 13057, United States",43.0717462,-76.0850609,30 Cotty Dr,DeWitt,74999
"309 Long Branch Rd, Geddes, New York","309, Long Branch Road, Lindbergh Lawns, City of Syracuse, Town of Geddes, Onondaga County, New York, 13209, United States",43.1139734,-76.2571927,309 Long Branch Rd,Geddes,190000
"3425 Netherstone Ct, Lysander, New York","3425, Netherstone Court, Radisson, Town of Lysander, Onondaga County, New York, 13027, United States",43.1824613,-76.2827586,3425 Netherstone Ct,Lysander,385000
"5304 Villa Ridge Ct, Lysander, New York","5304, Villa Ridge Court, Lysander New Community, Radisson, Town of Lysander, Onondaga County, New York, 13027, United States",43.1720532,-76.2924477,5304 Villa Ridge Ct,Lysander,350000
"3144 Timberlea Ln, Lysander, New York","3144, Timberlea Lane, Radisson, Town of Lysander, Onondaga County, New York, 13027, United States",43.1933478,-76.293315,3144 Timberlea Ln,Lysander,240000
"2185 W Genesee Rd, Lysander, New York","2185, West Genesee Road, Town of Lysander, Onondaga County, New York, 13027, United States",43.1639701,-76.3531331,2185 W Genesee Rd,Lysander,87000
"4741 Lythim Cir, Manlius (town), New York","4741, Lythim Circle, Town of Manlius, Onondaga County, New York, 13104, United States",43.00094535,-75.9524508756011,4741 Lythim Cir,Manlius (town),388000
"4337 Fay Rd, Onondaga, New York","4337, Fay Road, Taunton, City of Syracuse, Marcellus, Onondaga County, New York, 13219, United States",43.0295317,-76.2140659,4337 Fay Rd,Onondaga,189500
"5110 Onondaga Rd, Onondaga, New York","5110, Onondaga Road, Split Rock, City of Syracuse, Marcellus, Onondaga County, New York, 13215, United States",43.0191935,-76.2176403,5110 Onondaga Rd,Onondaga,57400
"4040 Oran Gulf Rd, Pompey, New York","4040, Oran Gulf Road, Dennis Farms, Town of Manlius, Onondaga County, New York, 13104, United States",42.9656793,-75.9376034,4040 Oran Gulf Rd,Pompey,405000
"111 Hanover Ave, Salina, New York","111, Hanover Avenue, Galeville, Town of Salina, Onondaga County, New York, 13088, United States",43.0896918,-76.18610617687861,111 Hanover Ave,Salina,168000
"204 Cranberry Dr, Salina, New York","204, Cranberry Drive, Salina, Town of Salina, Onondaga County, New York, 13088, United States",43.1048653,-76.19405093925172,204 Cranberry Dr,Salina,82000
"107 Diana Ave, Syracuse, New York","107, Diana Avenue, Outer Comstock, City of Syracuse, Onondaga County, New York, 13210, United States",43.0149406,-76.1282321,107 Diana Ave,Syracuse,252000
"300 Lockwood Rd, Syracuse, New York","300, Lockwood Road, Meadowbrook, City of Syracuse, Onondaga County, New York, 13214, United States",43.0383471,-76.08528575835379,300 Lockwood Rd,Syracuse,160000
"1330 Glenwood Ave, Syracuse, New York","1330, Glenwood Avenue, Strathmore, City of Syracuse, Onondaga County, New York, 13207, United States",43.0254816,-76.1837846,1330 Glenwood Ave,Syracuse,130000
"1516 Valley Dr, Syracuse, New York","1516, Valley Drive, North Valley, City of Syracuse, Onondaga County, New York, 13207, United States",43.0029489,-76.1533255,1516 Valley Dr,Syracuse,110000
"101-03 Elizabeth St, Syracuse, New York","Elizabeth Street, Brighton, City of Syracuse, Onondaga County, New York, 13205, United States",43.0266969,-76.1424033,101-03 Elizabeth St,Syracuse,89900
"312 Martin St, Syracuse, New York","312, Martin Street, Northside, City of Syracuse, Onondaga County, New York, 13208, United States",43.0820043,-76.1526152,312 Martin St,Syracuse,65000
"119 Beecher St, Syracuse, New York","119, Beecher Street, Near Northeast, City of Syracuse, Onondaga County, New York, 13203, United States",43.0600139,-76.1424213,119 Beecher St,Syracuse,39900
"202 Fox Dr, Camillus (town), New York","202, Fox Drive, Orchard Village, Town of Camillus, Onondaga County, New York, 13031, United States",43.0447512,-76.2786349,202 Fox Dr,Camillus (town),162740
"6 Carol Dr, Camillus (town), New York","6, Carol Drive, Fairmount, Town of Camillus, Onondaga County, New York, 13031, United States",43.0313316,-76.273143,6 Carol Dr,Camillus (town),125000
"5891 Glendora Rd, Cicero, New York","5891, Glendora Road, Town of Cicero, Onondaga County, New York, 13039, United States",43.1666445,-76.1131348,5891 Glendora Rd,Cicero,168000
"10 Nectarine Ln, Clay, New York","10, Nectarine Lane, Town of Clay, Onondaga County, New York, 13090, United States",43.1417779,-76.2112102,10 Nectarine Ln,Clay,315000
"8305 Azimuth Dr, Clay, New York","8305, Azimuth Drive, Town of Clay, Onondaga County, New York, 13027, United States",43.172105,-76.2632564,8305 Azimuth Dr,Clay,300000
"99 Lynbrook Cir, DeWitt, New York","99, Lynbrook Circle, City of Syracuse, Onondaga County, New York, 13214, United States",43.0315585,-76.0727252740856,99 Lynbrook Cir,DeWitt,350000
"314 Manlius St, East Syracuse, New York","314, Davis Street, Oot Park, Town of Manlius, Onondaga County, New York, 13057, United States",43.0640376,-76.02112150499325,314 Manlius St,East Syracuse,105000
"2879 Apulia Rd, LaFayette, New York","2879, Apulia Road, Big Bend, Town of LaFayette, Onondaga County, New York, 13084, United States",42.9106403,-76.0721784,2879 Apulia Rd,LaFayette,135000
"4857 Glenfield Dr, Onondaga, New York","4857, Glenfield Drive, City of Syracuse, Onondaga County, New York, 13215, United States",43.0168066,-76.1787758,4857 Glenfield Dr,Onondaga,240000
"143 Longdale Dr, Salina, New York","143, Longdale Drive, Elmcrest, Town of Salina, Onondaga County, New York, 13090, United States",43.12639195,-76.22554711132067,143 Longdale Dr,Salina,220000
"16 Austin St, Skaneateles (village), New York","16, East Austin Street, Village of Skaneateles, Town of Skaneateles, Marcellus, Onondaga County, New York, 13152, United States",42.9507816,-76.4291093,16 Austin St,Skaneateles (village),296100
"135 Durston Ave, Syracuse, New York","135, Durston Avenue, Sedgwick, City of Syracuse, Onondaga County, New York, 13203, United States",43.0642374,-76.1272327,135 Durston Ave,Syracuse,230000
"243-45 Tennyson Ave, Syracuse, New York","Tennyson Avenue, Far Westside, City of Syracuse, Onondaga County, New York, 13204, United States",43.0461321,-76.1843426,243-45 Tennyson Ave,Syracuse,210000
"433 Midler Ave, Syracuse, New York","433, South Midler Avenue, Eastwood, City of Syracuse, Onondaga County, New York, 13206, United States",43.0609186,-76.1041523,433 Midler Ave,Syracuse,170000
"1632 Midland Ave, Syracuse, New York","1632, Midland Avenue, Brighton, City of Syracuse, Onondaga County, New York, 13205, United States",43.0224749,-76.1504418,1632 Midland Ave,Syracuse,151000
"422 Elm St, Syracuse, New York","422, Elm Street, Near Eastside, City of Syracuse, Onondaga County, New York, 13203, United States",43.0569805,-76.1301504,422 Elm St,Syracuse,149460
"369 Collingwood Ave, Syracuse, New York","369, South Collingwood Avenue, Eastwood, City of Syracuse, Onondaga County, New York, 13206, United States",43.0620496,-76.1067571,369 Collingwood Ave,Syracuse,129000
"711 Caleb Ave, Syracuse, New York","711, Caleb Avenue, Eastwood, City of Syracuse, Onondaga County, New York, 13206, United States",43.0598013,-76.1062226,711 Caleb Ave,Syracuse,86721
"113 Cummings Ave, Syracuse, New York","113, Cummings Avenue, Washington Square, City of Syracuse, Onondaga County, New York, 13208, United States",43.0672168,-76.1605361,113 Cummings Ave,Syracuse,85000
"125 Benedict Ave, Syracuse, New York","125, Benedict Avenue, City of Syracuse, Onondaga County, New York, 13210, United States",43.0240496,-76.1378362,125 Benedict Ave,Syracuse,500
"314 Dunning Dr, Camillus (town), New York","314, Dunning Drive, West Genesee Terrace, Fairmount, Town of Camillus, Marcellus, Onondaga County, New York, 13031, United States",43.0473381,-76.2632883,314 Dunning Dr,Camillus (town),10
"5498 Trastevere Rd, Clay, New York","5498, Trastevere Road, Town of Clay, Onondaga County, New York, 13041, United States",43.1619034,-76.1377328,5498 Trastevere Rd,Clay,84000
"4730 Anglia St, Manlius (town), New York","4730, Anglia Street, Town of Manlius, Onondaga County, New York, 13104, United States",43.0008565,-75.94793809999999,4730 Anglia St,Manlius (town),183000
"112 Macon St, Onondaga, New York","112, Macon Street, Nedrow, Town of Onondaga, Onondaga County, New York, 13120, United States",42.978952,-76.1393215,112 Macon St,Onondaga,19136
"2504 Court St, Salina, New York","2504, Court Street, Lyncourt, City of Syracuse, Onondaga County, New York, 13208, United States",43.0838605,-76.1355999,2504 Court St,Salina,176000
"130 Baldwin Ave, Syracuse, New York","130, Baldwin Avenue, Elmwood, City of Syracuse, Onondaga County, New York, 13205, United States",43.0155628,-76.1554448,130 Baldwin Ave,Syracuse,29900
"361 Lafayette Ave, Syracuse, New York","361, West Lafayette Avenue, Brighton, City of Syracuse, Onondaga County, New York, 13205, United States",43.0186146,-76.15065,361 Lafayette Ave,Syracuse,15000
"4440 Salina St, Syracuse, New York","4440, South Salina Street, North Valley, City of Syracuse, Onondaga County, New York, 13205, United States",43.0043739,-76.1432844,4440 Salina St,Syracuse,13000
"820 Fairway Cir, Van Buren, New York","820, Fairway Circle, Village Green, Town of Van Buren, Onondaga County, New York, 13027, United States",43.1260289,-76.3097584,820 Fairway Cir,Van Buren,167000
"14 Kastor Ave, Camillus (village), New York","14, Kastor Avenue, Village of Camillus, Town of Camillus, Onondaga County, New York, 13031, United States",43.0413154,-76.3129026,14 Kastor Ave,Camillus (village),122000
"8115 Thurston Dr, Cicero, New York","8115, Thurston Drive, Town of Cicero, Onondaga County, New York, 13039, United States",43.1631474,-76.1102345,8115 Thurston Dr,Cicero,150000
"7653 Admiral Dr, Clay, New York","7653, Admiral Drive, Bayberry, Town of Clay, Onondaga County, New York, 13090, United States",43.1420567,-76.2315488,7653 Admiral Dr,Clay,180000
"7855 Morgan Rd., Clay, New York","7855, Morgan Road, Town of Clay, Onondaga County, New York, 13090, United States",43.1507561,-76.207874,7855 Morgan Rd.,Clay,66000
"8407B Shallowcreek Rd, Clay, New York","8407 B, Shallowcreek Road, Town of Clay, Onondaga County, New York, 13090, United States",43.178104,-76.2241606,8407B Shallowcreek Rd,Clay,30000
"4723 James St, DeWitt, New York","4723, James Street, Village of East Syracuse, Town of De Witt, Onondaga County, New York, 13057, United States",43.0703306,-76.0793505,4723 James St,DeWitt,105000
"304 Maple Rd, Geddes, New York","304, Maple Road, City of Syracuse, Town of Geddes, Onondaga County, New York, 13219, United States",43.0421146,-76.2103637,304 Maple Rd,Geddes,275000
"213 Ridge Ave, Salina, New York","213, Ridge Avenue, Galeville, Town of Salina, Onondaga County, New York, 13088, United States",43.08644195,-76.17979920770667,213 Ridge Ave,Salina,142500
"217.5 Snyder Ave, Salina, New York","Snyder Avenue, Lyncourt, Town of Salina, Onondaga County, New York, 13206, United States",43.077013,-76.11995,217.5 Snyder Ave,Salina,140000
"210 Plymouth Ave, Salina, New York","210, Plymouth Avenue, Hinsdale, Mattydale, City of Syracuse, Onondaga County, New York, 13211, United States",43.1003663,-76.1350119,210 Plymouth Ave,Salina,140000
"311-15 Gertrude St, Syracuse, New York","Gertrude Street, Near Northeast, City of Syracuse, Onondaga County, New York, 13203, United States",43.0535108,-76.1389429,311-15 Gertrude St,Syracuse,93000
"1006 Willis Ave, Syracuse, New York","1006, Willis Avenue, Far Westside, City of Syracuse, Onondaga County, New York, 13204, United States",43.0565966,-76.1948398,1006 Willis Ave,Syracuse,89900
"6 Monica Pl, Baldwinsville, New York","6, Monica Place, Village of Baldwinsville, Town of Van Buren, Onondaga County, New York, 13027, United States",43.1531268,-76.3419269,6 Monica Pl,Baldwinsville,127500
"112 Pacer Way, Camillus (town), New York","112, Pacer Way, Garden Terrace, Town of Camillus, Onondaga County, New York, 13164, United States",43.0901064,-76.2798467,112 Pacer Way,Camillus (town),386000
"118 Forrest Way, Camillus (town), New York","118, Forrest Way, Orchard Village, Town of Camillus, Onondaga County, New York, 13031, United States",43.0435937,-76.2935586,118 Forrest Way,Camillus (town),205000
"6253 Addison Loomis, Cicero, New York","6253, Addison Loomis, Town of Cicero, Onondaga County, New York, 13039, United States",43.1706542,-76.0792248,6253 Addison Loomis,Cicero,385000
"206 Allen Rd, Clay, New York","206, Allen Road, City of Syracuse, Onondaga County, New York, 13212, United States",43.1248453,-76.1558715,206 Allen Rd,Clay,154900
"5427 Borgase Ln, Clay, New York","5427, Borgase Lane, Town of Clay, Onondaga County, New York, 13041, United States",43.1683798,-76.1438018,5427 Borgase Ln,Clay,117150
"8416A Shallowcreek Rd, Clay, New York","8416 A, Shallowcreek Road, Town of Clay, Onondaga County, New York, 13090, United States",43.1786328,-76.2259742,8416A Shallowcreek Rd,Clay,88800
"306 Newcastle Rd, Geddes, New York","306, Newcastle Road, City of Syracuse, Town of Geddes, Onondaga County, New York, 13219, United States",43.0415835,-76.2217727,306 Newcastle Rd,Geddes,190000
"309 Alder St, Liverpool, New York","309, Alder Street, Village of Liverpool, Town of Salina, Onondaga County, New York, 13088, United States",43.11091555,-76.20987499646984,309 Alder St,Liverpool,190000
"8418 Turnberry Dr, Manlius (town), New York","8418, Turnberry Drive, Town of Manlius, Onondaga County, New York, 13104, United States",43.00261025,-75.94451604512334,8418 Turnberry Dr,Manlius (town),555000
"5139 Reis Cir, Manlius (town), New York","5139, Reis Circle, Town of Manlius, Onondaga County, New York, 13066, United States",43.016388,-76.0235016,5139 Reis Cir,Manlius (town),494000
"1 Devonshire Rd, North Syracuse, New York","1, Devonshire Road, Village of North Syracuse, Town of Clay, Onondaga County, New York, 13212, United States",43.1283802,-76.1324418,1 Devonshire Rd,North Syracuse,106500
"303 Glendale Ave, Salina, New York","303, Glendale Avenue, Galeville, Town of Salina, Onondaga County, New York, 13088, United States",43.09089035,-76.17804539838158,303 Glendale Ave,Salina,189900
"413 Sedgwick Dr, Syracuse, New York","413, Sedgwick Drive, Sedgwick, City of Syracuse, Onondaga County, New York, 13203, United States",43.0664632,-76.1332336,413 Sedgwick Dr,Syracuse,385000
"509-11 Boyden St, Syracuse, New York","Boyden Street, Lincoln Park, City of Syracuse, Onondaga County, New York, 13206, United States",43.061283,-76.119974,509-11 Boyden St,Syracuse,115000
"123 Maxwell Ave, Syracuse, New York","123, Maxwell Avenue, North Valley, City of Syracuse, Onondaga County, New York, 13207, United States",43.0060569,-76.1557601,123 Maxwell Ave,Syracuse,976
"261 Cedar Ct, Van Buren, New York","261, Cedar Court, Village Green, Town of Van Buren, Onondaga County, New York, 13027, United States",43.1357371,-76.3035325,261 Cedar Ct,Van Buren,80000
"10 Mechanic St, Camillus (village), New York","10, Mechanic Street, Village of Camillus, Town of Camillus, Onondaga County, New York, 13031, United States",43.0380026,-76.3101822,10 Mechanic St,Camillus (village),175000
"608 Church St, Cicero, New York","608, Church Street, City of Syracuse, Onondaga County, New York, 13212, United States",43.1311514,-76.1146394,608 Church St,Cicero,94600
"6412 Finish Line Trl, Cicero, New York","6412, Finish Line Trail, Town of Cicero, Onondaga County, New York, 13029, United States",43.194009,-76.087217,6412 Finish Line Trl,Cicero,65000
"8508 Dorothys Garden Pl, Clay, New York","8508, Dorothys Garden Place, Town of Clay, Onondaga County, New York, 13041, United States",43.1799231,-76.1825701,8508 Dorothys Garden Pl,Clay,410000
"8157 Rizzo Dr, Clay, New York","8157, Rizzo Drive, Rodger Corner, Town of Clay, Onondaga County, New York, 13041, United States",43.1640728,-76.1554187,8157 Rizzo Dr,Clay,270000
"8106 Como Ln, Clay, New York","8106, Como Lane, Town of Clay, Onondaga County, New York, 13041, United States",43.1664437,-76.1438996,8106 Como Ln,Clay,200000
"4810 Black Oak Dr, Clay, New York","4810, Black Oak Drive, Clairmont, Town of Clay, Onondaga County, New York, 13088, United States",43.1339891,-76.1825834,4810 Black Oak Dr,Clay,200000
"3706A Henley Ct, Clay, New York","Henley Court, Town of Clay, Onondaga County, New York, 13090, United States",43.169576,-76.255216,3706A Henley Ct,Clay,92500
"4512 James St, East Syracuse, New York","4512, James Street, Village of East Syracuse, Town of De Witt, Onondaga County, New York, 13057, United States",43.0697656,-76.0840425,4512 James St,East Syracuse,160000
"8755 Tallwood Rdg, Lysander, New York","8755, Tallwood Ridge, Radisson, Town of Lysander, Onondaga County, New York, 13027, United States",43.1916469,-76.2845192,8755 Tallwood Rdg,Lysander,230000
"3370 Longview Terrace, Lysander, New York","Longview Terrace, Radisson, Town of Lysander, Onondaga County, New York, 13135, United States",43.2023512,-76.2840647,3370 Longview Terrace,Lysander,80000
"1 Orchard St, Marcellus (village), New York","1, Orchard Street, Village of Marcellus, Town of Marcellus, Onondaga County, New York, 13108, United States",42.9915696,-76.338777,1 Orchard St,Marcellus (village),180000
"4426 Adlai Dr, Onondaga, New York","4426, Adlai Drive, City of Syracuse, Onondaga County, New York, 13215, United States",42.9851334,-76.1799108,4426 Adlai Dr,Onondaga,310000
"7144 Frank Long Rd, Pompey, New York","7144, Frank Long Road, Town of Pompey, Onondaga County, New York, 13078, United States",42.9621143,-76.029411,7144 Frank Long Rd,Pompey,210000
"200 Gale Ave, Salina, New York","200, Gale Avenue, Galeville, Town of Salina, Onondaga County, New York, 13088, United States",43.0915571,-76.18163289015261,200 Gale Ave,Salina,132900
"250 Berwick Rd N, Salina, New York","250, Berwick Road North, Lyncourt, City of Syracuse, Onondaga County, New York, 13208, United States",43.0866488,-76.13356388426354,250 Berwick Rd N,Salina,10
"221 Freeman Ave, Solvay, New York","221, Freeman Avenue, City of Syracuse, Town of Geddes, Onondaga County, New York, 13209, United States",43.0567833,-76.2024372,221 Freeman Ave,Solvay,154900
"119 Merrill St, Syracuse, New York","119, Merrill Street, Northside, City of Syracuse, Onondaga County, New York, 13208, United States",43.0812815,-76.1497227,119 Merrill St,Syracuse,115000
"112 Schneider St, Syracuse, New York","112, Schneider Street, Near Northeast, City of Syracuse, Onondaga County, New York, 13203, United States",43.0618715,-76.1429586,112 Schneider St,Syracuse,20000
"937 Beverly Dr, Camillus (town), New York","937, Beverly Drive, Fairmount, City of Syracuse, Onondaga County, New York, 13219, United States",43.0405183,-76.2346526,937 Beverly Dr,Camillus (town),245000
"14 Kenmont Dr, Camillus (town), New York","14, Kenmont Drive, Westerlea, Town of Camillus, Onondaga County, New York, 13031, United States",43.0435309,-76.2746066,14 Kenmont Dr,Camillus (town),201200
"7886 Sagamore Dr, Clay, New York","7886, Sagamore Drive North, Bayberry, Town of Clay, Onondaga County, New York, 13090, United States",43.1524982,-76.2231855,7886 Sagamore Dr,Clay,155000
"7459 Coachlight Ln, Clay, New York","7459, Coachlight Lane, Town of Clay, Onondaga County, New York, 13088, United States",43.1314981,-76.1736908,7459 Coachlight Ln,Clay,150000
"122 Brown St, Elbridge (village), New York","122, Brown Street, Village of Elbridge, Town of Elbridge, Onondaga County, New York, 13060, United States",43.0327331,-76.444127,122 Brown St,Elbridge (village),185000
"206 Balsam St, Liverpool, New York","206, Balsam Street, Village of Liverpool, Town of Salina, Onondaga County, New York, 13088, United States",43.104668450000005,-76.21112915162337,206 Balsam St,Liverpool,84900
"3773 Rockwell Rd, Marcellus (town), New York","3773, Rockwell Road, Town of Marcellus, Marcellus, Onondaga County, New York, 13108, United States",42.9536597,-76.3262626,3773 Rockwell Rd,Marcellus (town),126000
"67 Genesee St, Skaneateles (village), New York","67, West Genesee Street, Village of Skaneateles, Town of Skaneateles, Marcellus, Onondaga County, New York, 13152, United States",42.9443806,-76.4357762,67 Genesee St,Skaneateles (village),665000
"134 Lawrence St, Syracuse, New York","134, Lawrence Street, Washington Square, City of Syracuse, Onondaga County, New York, 13208, United States",43.0697641,-76.151592,134 Lawrence St,Syracuse,25000
"111 Camillus Dr, Camillus (town), New York","111, Camillus Drive, Parson Farms, Town of Camillus, Onondaga County, New York, 13031, United States",43.0386815,-76.280338,111 Camillus Dr,Camillus (town),180000
"5813 Route 31, Cicero, New York","State Route 31, Town of Clay, Onondaga County, New York, 13041, United States",43.174868,-76.134691,5813 Route 31,Cicero,4500000
"6148 Bethlehem Ln, Cicero, New York","6148, Bethlehem Lane, Town of Cicero, Onondaga County, New York, 13039, United States",43.1802033,-76.1040236,6148 Bethlehem Ln,Cicero,160000
"12 Holly Ln, Clay, New York","12, Holly Lane, Town of Clay, Onondaga County, New York, 13090, United States",43.1364999,-76.2136019,12 Holly Ln,Clay,242000
"8234 Perrugia Ln, Clay, New York","8234, Perrugia Lane, Town of Clay, Onondaga County, New York, 13041, United States",43.1671917,-76.1451651,8234 Perrugia Ln,Clay,219000
"206 Warwick Rd, DeWitt, New York","206, Warwick Road, City of Syracuse, Onondaga County, New York, 13214, United States",43.0333359,-76.06616389719707,206 Warwick Rd,DeWitt,265000
"210 Allen St, East Syracuse, New York","210, Allen Street, Village of East Syracuse, Town of De Witt, Onondaga County, New York, 13057, United States",43.068996,-76.0818853,210 Allen St,East Syracuse,190000
"3207 Far Reach Dr, Lysander, New York","3207, Far Reach Drive, Radisson, Town of Lysander, Onondaga County, New York, 13027, United States",43.2035912,-76.2872473,3207 Far Reach Dr,Lysander,282000
"7110 Taft Rd, Manlius (town), New York","7110, East Taft Road, Town of Manlius, Onondaga County, New York, 13057, United States",43.1221269,-76.0312014,7110 Taft Rd,Manlius (town),88550
"4560 Limeledge Rd, Marcellus (town), New York","4560, Limeledge Road, Town of Marcellus, Onondaga County, New York, 13108, United States",42.9895325,-76.3516914,4560 Limeledge Rd,Marcellus (town),179539
"4611 Barker Hill Rd, Onondaga, New York","4611, Barker Hill Road, Southwood, Town of Onondaga, Onondaga County, New York, 13078, United States",42.9945659,-76.1088189,4611 Barker Hill Rd,Onondaga,132900
"3993 Onondaga Blvd, Onondaga, New York","3993, Onondaga Boulevard, Split Rock, Town of Camillus, Marcellus, Onondaga County, New York, 13031, United States",43.027911,-76.2377487,3993 Onondaga Blvd,Onondaga,110000
"4007 Marlton Cir, Salina, New York","4007, Marlton Circle, Town of Salina, Onondaga County, New York, 13090, United States",43.1255247,-76.23108435037629,4007 Marlton Cir,Salina,205000
"230 Malverne Dr, Syracuse, New York","230, Malverne Drive, Northside, City of Syracuse, Onondaga County, New York, 13208, United States",43.0806247,-76.1446229,230 Malverne Dr,Syracuse,165000
"125 Cheltenham Rd E, Syracuse, New York","125, East Cheltenham Road, South Valley, City of Syracuse, Onondaga County, New York, 13205, United States",42.9953418,-76.1424313,125 Cheltenham Rd E,Syracuse,160000
"219-21 Woodland Ave, Syracuse, New York","Woodland Avenue, Brighton, City of Syracuse, Onondaga County, New York, 13205, United States",43.029675,-76.142387,219-21 Woodland Ave,Syracuse,62500
"214 Hazelhurst Ave, Syracuse, New York","214, Hazelhurst Avenue, Eastwood, City of Syracuse, Onondaga County, New York, 13206, United States",43.0720519,-76.1127191,214 Hazelhurst Ave,Syracuse,50000
"13 Elm Hill Way, Camillus (town), New York","13, Elm Hill Way, West Genesee Terrace, Fairmount, Town of Camillus, Onondaga County, New York, 13031, United States",43.0484548,-76.2682743,13 Elm Hill Way,Camillus (town),178408
"7999 Spruce Hill Dr, Clay, New York","7999, Spruce Hill Drive, Town of Clay, Onondaga County, New York, 13041, United States",43.15823915,-76.14062749573796,7999 Spruce Hill Dr,Clay,290000
"6 Indian Orchard Ln, Clay, New York","6, Indian Orchard Lane, Bayberry, Town of Clay, Onondaga County, New York, 13090, United States",43.143315,-76.2151876,6 Indian Orchard Ln,Clay,237000
"210 Rita Dr, Clay, New York","210, Rita Drive, City of Syracuse, Onondaga County, New York, 13212, United States",43.1260016,-76.1630458,210 Rita Dr,Clay,144329
"5233 Wethersfield Rd, DeWitt, New York","5233, Wethersfield Road, Town of De Witt, Onondaga County, New York, 13078, United States",43.0246957,-76.0859454,5233 Wethersfield Rd,DeWitt,290000
"3129 Hidden Lake Dr, Lysander, New York","3129, Hidden Lake Drive, Radisson, Town of Lysander, Onondaga County, New York, 13027, United States",43.2013242,-76.2879877,3129 Hidden Lake Dr,Lysander,373400
"990 Morgan Rd, Lysander, New York","990, Morgan Road, Jacks Reef, Town of Lysander, Onondaga County, New York, 13112, United States",43.0972633,-76.4333629,990 Morgan Rd,Lysander,325000
"8600 Wrenwood Cir, Lysander, New York","8600, Wrenwood Circle, Radisson, Town of Lysander, Onondaga County, New York, 13027, United States",43.1854814,-76.2860215,8600 Wrenwood Cir,Lysander,270000
"114 Brandywine Dr, Manlius (town), New York","114, Brandywine Drive, Fillmore Corner, Town of Manlius, Onondaga County, New York, 13104, United States",42.9902645,-76.00911455039919,114 Brandywine Dr,Manlius (town),615000
"4155 Slate Hill Rd, Marcellus (town), New York","4155, Slate Hill Road, Town of Marcellus, Onondaga County, New York, 13108, United States",42.9713263,-76.3265691,4155 Slate Hill Rd,Marcellus (town),210000
"4753 Fawn Hl, Onondaga, New York","4753, Fawn Hill, City of Syracuse, Onondaga County, New York, 13215, United States",42.9945617,-76.1907995,4753 Fawn Hl,Onondaga,457500
"4137 Makyes Rd, Onondaga, New York","4137, Makyes Road, City of Syracuse, Marcellus, Onondaga County, New York, 13215, United States",42.9722208,-76.1952553,4137 Makyes Rd,Onondaga,200000
"118 Russell Ave, Salina, New York","118, Russell Avenue, Galeville, Town of Salina, Onondaga County, New York, 13088, United States",43.08483635,-76.17855107431683,118 Russell Ave,Salina,169900
"205 Plymouth Ave, Salina, New York","205, Plymouth Avenue, Hinsdale, Mattydale, City of Syracuse, Onondaga County, New York, 13211, United States",43.09994385,-76.13549646268572,205 Plymouth Ave,Salina,117000
"2386 Wave Way, Skaneateles (town), New York","2386, Wave Way, Winding Ways, Town of Skaneateles, Onondaga County, New York, 13152, United States",42.887445,-76.4106404,2386 Wave Way,Skaneateles (town),625000
"161 Hood Ave, Syracuse, New York","161, Hood Avenue, Northside, City of Syracuse, Onondaga County, New York, 13208, United States",43.0740658,-76.14461384221732,161 Hood Ave,Syracuse,150000
"111 John St, Syracuse, New York","111, John Street, Near Northeast, City of Syracuse, Onondaga County, New York, 13208, United States",43.0618741,-76.1491013,111 John St,Syracuse,95000
"427 Fellows Ave, Syracuse, New York","427, Fellows Avenue, Westcott, City of Syracuse, Onondaga County, New York, 13210, United States",43.0361696,-76.1148777,427 Fellows Ave,Syracuse,120000
